[{"alpha3Code":"AFG","alpha2Code":"AF","name":"Afghanistan","officialName":"Islamic Republic of Afghanistan","latitude":"33.98299275","longitude":"66.39159363","zoom":6,"id":"5f7853b6c0124571503debfe","statusType":1},{"alpha3Code":"ALA","alpha2Code":"AX","name":"Åland Islands","officialName":"Åland Islands","latitude":"60.25403213","longitude":"20.35918350","zoom":9,"id":"5f7853b7c0124571503debff","statusType":1},{"alpha3Code":"ALB","alpha2Code":"AL","name":"Albania","officialName":"Republic of Albania","latitude":"41.00017358","longitude":"19.87170014","zoom":7,"id":"5f7853b7c0124571503dec00","statusType":1},{"alpha3Code":"DZA","alpha2Code":"DZ","name":"Algeria","officialName":"People's Democratic Republic of Algeria","latitude":"27.89861690","longitude":"3.19771194","zoom":5,"id":"5f7853b7c0124571503dec01","statusType":1},{"alpha3Code":"ASM","alpha2Code":"AS","name":"American Samoa","officialName":"The United States Territory of American Samoa","latitude":"-14.30634641","longitude":"-170.69501750","zoom":11,"id":"5f7853b7c0124571503dec02","statusType":1},{"alpha3Code":"AND","alpha2Code":"AD","name":"Andorra","officialName":"Principality of Andorra","latitude":"42.54057088","longitude":"1.55201340","zoom":11,"id":"5f7853b7c0124571503dec03","statusType":1},{"alpha3Code":"AGO","alpha2Code":"AO","name":"Angola","officialName":"Republic of Angola","latitude":"-12.16469683","longitude":"16.70933622","zoom":6,"id":"5f7853b7c0124571503dec04","statusType":1},{"alpha3Code":"AIA","alpha2Code":"AI","name":"Anguilla","officialName":"Anguilla","latitude":"18.22053521","longitude":"-63.06861300","zoom":12,"id":"5f7853b7c0124571503dec05","statusType":1},{"alpha3Code":"ATA","alpha2Code":"AQ","name":"Antarctica","officialName":"Antarctica","latitude":"-45.13806295","longitude":"10.48095703","zoom":2,"id":"5f7853b7c0124571503dec06","statusType":1},{"alpha3Code":"ATG","alpha2Code":"AG","name":"Antigua and Barbuda","officialName":"Antigua and Barbuda","latitude":"17.48060423","longitude":"-61.42014426","zoom":9,"id":"5f7853b7c0124571503dec07","statusType":1},{"alpha3Code":"ARG","alpha2Code":"AR","name":"Argentina","officialName":"Argentine Republic","latitude":"-38.01529308","longitude":"-64.97897469","zoom":4,"id":"5f7853b7c0124571503dec08","statusType":1},{"alpha3Code":"ARM","alpha2Code":"AM","name":"Armenia","officialName":"Republic of Armenia","latitude":"40.13475528","longitude":"45.01072318","zoom":7,"id":"5f7853b7c0124571503dec09","statusType":1},{"alpha3Code":"ABW","alpha2Code":"AW","name":"Aruba","officialName":"Aruba of the Kingdom of the Netherlands","latitude":"12.52109661","longitude":"-69.96833800","zoom":12,"id":"5f7853b7c0124571503dec0a","statusType":1},{"alpha3Code":"AUS","alpha2Code":"AU","name":"Australia","officialName":"Australia","latitude":"-26.29594646","longitude":"133.55540944","zoom":4,"id":"5f7853b7c0124571503dec0b","statusType":1},{"alpha3Code":"AUT","alpha2Code":"AT","name":"Austria","officialName":"Republic of Austria","latitude":"47.63125476","longitude":"13.18776731","zoom":7,"id":"5f7853b7c0124571503dec0c","statusType":1},{"alpha3Code":"AZE","alpha2Code":"AZ","name":"Azerbaijan","officialName":"Republic of Azerbaijan","latitude":"40.35321757","longitude":"47.46706372","zoom":7,"id":"5f7853b7c0124571503dec0d","statusType":1},{"alpha3Code":"BHS","alpha2Code":"BS","name":"Bahamas","officialName":"Commonwealth of the Bahamas","latitude":"24.45991732","longitude":"-77.68192453","zoom":7,"id":"5f7853b7c0124571503dec0e","statusType":1},{"alpha3Code":"BHR","alpha2Code":"BH","name":"Bahrain","officialName":"Kingdom of Bahrain","latitude":"25.90740996","longitude":"50.65932354","zoom":9,"id":"5f7853b7c0124571503dec0f","statusType":1},{"alpha3Code":"BGD","alpha2Code":"BD","name":"Bangladesh","officialName":"People's Republic of Bangladesh","latitude":"24.08273251","longitude":"90.49915527","zoom":7,"id":"5f7853b7c0124571503dec10","statusType":1},{"alpha3Code":"BRB","alpha2Code":"BB","name":"Barbados","officialName":"Barbados","latitude":"13.19383077","longitude":"-59.54319600","zoom":11,"id":"5f7853b7c0124571503dec11","statusType":1},{"alpha3Code":"BLR","alpha2Code":"BY","name":"Belarus","officialName":"Republic of Belarus","latitude":"53.58628747","longitude":"27.95338900","zoom":6,"id":"5f7853b7c0124571503dec12","statusType":1},{"alpha3Code":"BEL","alpha2Code":"BE","name":"Belgium","officialName":"Kingdom of Belgium","latitude":"50.49593874","longitude":"4.46993600","zoom":8,"id":"5f7853b7c0124571503dec13","statusType":1},{"alpha3Code":"BLZ","alpha2Code":"BZ","name":"Belize","officialName":"Belize","latitude":"17.21153631","longitude":"-88.01424956","zoom":8,"id":"5f7853b7c0124571503dec14","statusType":1},{"alpha3Code":"BEN","alpha2Code":"BJ","name":"Benin","officialName":"Republic of Benin","latitude":"9.37180859","longitude":"2.29386134","zoom":7,"id":"5f7853b7c0124571503dec15","statusType":1},{"alpha3Code":"BMU","alpha2Code":"BM","name":"Bermuda","officialName":"Bermudas","latitude":"32.31995785","longitude":"-64.76182765","zoom":12,"id":"5f7853b7c0124571503dec16","statusType":1},{"alpha3Code":"BTN","alpha2Code":"BT","name":"Bhutan","officialName":"Kingdom of Bhutan","latitude":"27.50752756","longitude":"90.43360300","zoom":8,"id":"5f7853b7c0124571503dec17","statusType":1},{"alpha3Code":"BOL","alpha2Code":"BO","name":"Bolivia","officialName":"Plurinational State of Bolivia","latitude":"-16.74518128","longitude":"-65.19265691","zoom":6,"id":"5f7853b7c0124571503dec18","statusType":1},{"alpha3Code":"BES","alpha2Code":"BQ","name":"Bonaire, Saint Eustatius And Saba","officialName":"Bonaire, Saint Eustatius and Saba","latitude":"12.17229702","longitude":"-68.28831170","zoom":11,"id":"5f7853b7c0124571503dec19","statusType":1},{"alpha3Code":"BIH","alpha2Code":"BA","name":"Bosnia and Herzegovina","officialName":"Bosnia and Herzegovina","latitude":"44.00040856","longitude":"17.81640910","zoom":7,"id":"5f7853b7c0124571503dec1a","statusType":1},{"alpha3Code":"BWA","alpha2Code":"BW","name":"Botswana","officialName":"Republic of Botswana","latitude":"-22.18279485","longitude":"24.22344422","zoom":6,"id":"5f7853b7c0124571503dec1b","statusType":1},{"alpha3Code":"BVT","alpha2Code":"BV","name":"Bouvet Island","officialName":"Bouvet Island","latitude":"-54.42316906","longitude":"3.41319600","zoom":12,"id":"5f7853b7c0124571503dec1c","statusType":1},{"alpha3Code":"BRA","alpha2Code":"BR","name":"Brazil","officialName":"Federative Republic of Brazil","latitude":"-11.80965046","longitude":"-53.33152600","zoom":4,"id":"5f7853b7c0124571503dec1d","statusType":1},{"alpha3Code":"IOT","alpha2Code":"IO","name":"British Indian Ocean Territory","officialName":"The British Indian Ocean Territory","latitude":"-7.33461519","longitude":"72.42425280","zoom":12,"id":"5f7853b7c0124571503dec1e","statusType":1},{"alpha3Code":"BRN","alpha2Code":"BN","name":"Brunei Darussalam","officialName":"Brunei Darussalam","latitude":"4.54189364","longitude":"114.60132823","zoom":9,"id":"5f7853b7c0124571503dec1f","statusType":1},{"alpha3Code":"BGR","alpha2Code":"BG","name":"Bulgaria","officialName":"Republic of Bulgaria","latitude":"42.70160678","longitude":"25.48583200","zoom":7,"id":"5f7853b7c0124571503dec20","statusType":1},{"alpha3Code":"BFA","alpha2Code":"BF","name":"Burkina Faso","officialName":"Burkina Faso","latitude":"12.22492458","longitude":"-1.56159100","zoom":7,"id":"5f7853b7c0124571503dec21","statusType":1},{"alpha3Code":"BDI","alpha2Code":"BI","name":"Burundi","officialName":"Republic of Burundi","latitude":"-3.40499707","longitude":"29.88592902","zoom":8,"id":"5f7853b7c0124571503dec22","statusType":1},{"alpha3Code":"CPV","alpha2Code":"CV","name":"Cabo Verde","officialName":"Republic of Cabo Verde","latitude":"15.11988711","longitude":"-23.60517010","zoom":10,"id":"5f7853b7c0124571503dec23","statusType":1},{"alpha3Code":"KHM","alpha2Code":"KH","name":"Cambodia","officialName":"Kingdom of Cambodia","latitude":"12.83288883","longitude":"104.84814273","zoom":7,"id":"5f7853b7c0124571503dec24","statusType":1},{"alpha3Code":"CMR","alpha2Code":"CM","name":"Cameroon","officialName":"Republic of Cameroon","latitude":"7.38622543","longitude":"12.72825915","zoom":6,"id":"5f7853b7c0124571503dec25","statusType":1},{"alpha3Code":"CAN","alpha2Code":"CA","name":"Canada","officialName":"Canada","latitude":"60.36196817","longitude":"-106.69833150","zoom":4,"id":"5f7853b7c0124571503dec26","statusType":1},{"alpha3Code":"CYM","alpha2Code":"KY","name":"Cayman Islands","officialName":"The Cayman Islands","latitude":"19.31322102","longitude":"-81.25459800","zoom":11,"id":"5f7853b7c0124571503dec27","statusType":1},{"alpha3Code":"CAF","alpha2Code":"CF","name":"Central African Republic","officialName":"Central African Republic","latitude":"6.82541830","longitude":"20.64281514","zoom":6,"id":"5f7853b7c0124571503dec28","statusType":1},{"alpha3Code":"TCD","alpha2Code":"TD","name":"Chad","officialName":"Republic of Chad","latitude":"14.80342407","longitude":"18.78714064","zoom":5,"id":"5f7853b7c0124571503dec29","statusType":1},{"alpha3Code":"CHL","alpha2Code":"CL","name":"Chile","officialName":"Republic of Chile","latitude":"-38.01760790","longitude":"-71.40014474","zoom":4,"id":"5f7853b7c0124571503dec2a","statusType":1},{"alpha3Code":"CHN","alpha2Code":"CN","name":"China","officialName":"People's Republic of China","latitude":"36.71457440","longitude":"103.55819197","zoom":4,"id":"5f7853b7c0124571503dec2b","statusType":1},{"alpha3Code":"CXR","alpha2Code":"CX","name":"Christmas Island","officialName":"Territory of Christmas Island","latitude":"-10.49170619","longitude":"105.68083796","zoom":11,"id":"5f7853b7c0124571503dec2c","statusType":1},{"alpha3Code":"CCK","alpha2Code":"CC","name":"Cocos (Keeling) Islands","officialName":"Territory of Cocos (Keeling) Islands","latitude":"-12.12890685","longitude":"96.84689104","zoom":12,"id":"5f7853b7c0124571503dec2d","statusType":1},{"alpha3Code":"COL","alpha2Code":"CO","name":"Colombia","officialName":"Republic of Colombia","latitude":"3.68182320","longitude":"-73.53927436","zoom":5,"id":"5f7853b7c0124571503dec2e","statusType":1},{"alpha3Code":"COM","alpha2Code":"KM","name":"Comoros","officialName":"Union of the Comoros","latitude":"-11.64529989","longitude":"43.33330200","zoom":10,"id":"5f7853b7c0124571503dec2f","statusType":1},{"alpha3Code":"COG","alpha2Code":"CG","name":"Congo","officialName":"Republic of the Congo","latitude":"-0.68967806","longitude":"15.69033190","zoom":6,"id":"5f7853b7c0124571503dec30","statusType":1},{"alpha3Code":"COK","alpha2Code":"CK","name":"Cook Islands","officialName":"Cook Islands","latitude":"-21.23673066","longitude":"-159.77766900","zoom":13,"id":"5f7853b7c0124571503dec31","statusType":1},{"alpha3Code":"CRI","alpha2Code":"CR","name":"Costa Rica","officialName":"Republic of Costa Rica","latitude":"9.98427463","longitude":"-84.09949534","zoom":8,"id":"5f7853b7c0124571503dec32","statusType":1},{"alpha3Code":"CIV","alpha2Code":"CI","name":"Côte d'Ivoire","officialName":"Republic of Côte d'Ivoire","latitude":"7.59684148","longitude":"-5.49214636","zoom":7,"id":"5f7853b7c0124571503dec33","statusType":1},{"alpha3Code":"HRV","alpha2Code":"HR","name":"Croatia","officialName":"Republic of Croatia","latitude":"44.81372482","longitude":"16.29039507","zoom":7,"id":"5f7853b7c0124571503dec34","statusType":1},{"alpha3Code":"CUB","alpha2Code":"CU","name":"Cuba","officialName":"Republic of Cuba","latitude":"21.54513189","longitude":"-79.00064743","zoom":6,"id":"5f7853b7c0124571503dec35","statusType":1},{"alpha3Code":"CUW","alpha2Code":"CW","name":"Curaçao","officialName":"Curaçao","latitude":"12.20710309","longitude":"-69.02160369","zoom":11,"id":"5f7853b7c0124571503dec36","statusType":1},{"alpha3Code":"CYP","alpha2Code":"CY","name":"Cyprus","officialName":"Republic of Cyprus","latitude":"35.12450768","longitude":"33.42986100","zoom":9,"id":"5f7853b7c0124571503dec37","statusType":1},{"alpha3Code":"CZE","alpha2Code":"CZ","name":"Czechia","officialName":"Czech Republic","latitude":"49.76026136","longitude":"15.53888197","zoom":7,"id":"5f7853b7c0124571503dec38","statusType":1},{"alpha3Code":"PRK","alpha2Code":"KP","name":"North Korea","officialName":"Democratic People's Republic of Korea","latitude":"40.00785500","longitude":"127.48812834","zoom":6,"id":"5f7853b7c0124571503dec39","statusType":1},{"alpha3Code":"COD","alpha2Code":"CD","name":"Democratic Republic of the Congo","officialName":"Democratic Republic of Congo","latitude":"-4.05373938","longitude":"23.01110741","zoom":5,"id":"5f7853b7c0124571503dec3a","statusType":1},{"alpha3Code":"DNK","alpha2Code":"DK","name":"Denmark","officialName":"Kingdom of Denmark","latitude":"54.71794021","longitude":"9.41938953","zoom":6,"id":"5f7853b7c0124571503dec3b","statusType":1},{"alpha3Code":"DJI","alpha2Code":"DJ","name":"Djibouti","officialName":"Republic of Djibouti","latitude":"11.75959257","longitude":"42.65344839","zoom":8,"id":"5f7853b7c0124571503dec3c","statusType":1},{"alpha3Code":"DMA","alpha2Code":"DM","name":"Dominica","officialName":"Commonwealth of Dominica","latitude":"15.41473963","longitude":"-61.37097400","zoom":10,"id":"5f7853b7c0124571503dec3d","statusType":1},{"alpha3Code":"DOM","alpha2Code":"DO","name":"Dominican Republic","officialName":"Dominican Republic","latitude":"18.73076761","longitude":"-70.16264900","zoom":8,"id":"5f7853b7c0124571503dec3e","statusType":1},{"alpha3Code":"ECU","alpha2Code":"EC","name":"Ecuador","officialName":"Republic of Ecuador","latitude":"-1.22919037","longitude":"-78.55693916","zoom":6,"id":"5f7853b7c0124571503dec3f","statusType":1},{"alpha3Code":"EGY","alpha2Code":"EG","name":"Egypt","officialName":"Arab Republic of Egypt","latitude":"26.71650873","longitude":"30.80250000","zoom":6,"id":"5f7853b7c0124571503dec40","statusType":1},{"alpha3Code":"SLV","alpha2Code":"SV","name":"El Salvador","officialName":"Republic of El Salvador","latitude":"13.79043561","longitude":"-88.89652800","zoom":8,"id":"5f7853b7c0124571503dec41","statusType":1},{"alpha3Code":"GNQ","alpha2Code":"GQ","name":"Equatorial Guinea","officialName":"Republic of Equatorial Guinea","latitude":"1.65068442","longitude":"10.26789700","zoom":9,"id":"5f7853b7c0124571503dec42","statusType":1},{"alpha3Code":"ERI","alpha2Code":"ER","name":"Eritrea","officialName":"State of Eritrea","latitude":"15.21227764","longitude":"39.61204792","zoom":7,"id":"5f7853b7c0124571503dec43","statusType":1},{"alpha3Code":"EST","alpha2Code":"EE","name":"Estonia","officialName":"Republic of Estonia","latitude":"58.74041141","longitude":"25.38165099","zoom":7,"id":"5f7853b7c0124571503dec44","statusType":1},{"alpha3Code":"ETH","alpha2Code":"ET","name":"Ethiopia","officialName":"Federal Democratic Republic of Ethiopia","latitude":"9.10727589","longitude":"39.84148164","zoom":6,"id":"5f7853b7c0124571503dec45","statusType":1},{"alpha3Code":"EUR","alpha2Code":"EU","name":"European Union","officialName":"European Union","latitude":"48.76380654","longitude":"14.26843140","zoom":3,"id":"5f7853b7c0124571503dec46","statusType":1},{"alpha3Code":"FLK","alpha2Code":"FK","name":"Falkland Islands (Malvinas)","officialName":"Falkland Islands","latitude":"-51.78838251","longitude":"-59.52361100","zoom":8,"id":"5f7853b7c0124571503dec47","statusType":1},{"alpha3Code":"FRO","alpha2Code":"FO","name":"Faroe Islands (Associate Member)","officialName":"Faroe Islands","latitude":"61.88590482","longitude":"-6.91180400","zoom":8,"id":"5f7853b7c0124571503dec48","statusType":1},{"alpha3Code":"FJI","alpha2Code":"FJ","name":"Fiji","officialName":"Republic of Fiji","latitude":"-17.71219757","longitude":"178.06503600","zoom":9,"id":"5f7853b7c0124571503dec49","statusType":1},{"alpha3Code":"FIN","alpha2Code":"FI","name":"Finland","officialName":"Republic of Finland","latitude":"64.69610892","longitude":"26.36339137","zoom":5,"id":"5f7853b7c0124571503dec4a","statusType":1},{"alpha3Code":"FRA","alpha2Code":"FR","name":"France","officialName":"French Republic","latitude":"46.48372145","longitude":"2.60926281","zoom":6,"id":"5f7853b7c0124571503dec4b","statusType":1},{"alpha3Code":"GUF","alpha2Code":"GF","name":"French Guiana","officialName":"French Guiana","latitude":"4.01114381","longitude":"-52.97746057","zoom":7,"id":"5f7853b7c0124571503dec4c","statusType":1},{"alpha3Code":"PYF","alpha2Code":"PF","name":"French Polynesia","officialName":"Territory of French Polynesia","latitude":"-17.66243898","longitude":"-149.40683900","zoom":10,"id":"5f7853b7c0124571503dec4d","statusType":1},{"alpha3Code":"ATF","alpha2Code":"TF","name":"French Southern and Antarctic Lands","officialName":"Territory of the French Southern and Antarctic Lands","latitude":"-49.27235903","longitude":"69.34856300","zoom":8,"id":"5f7853b7c0124571503dec4e","statusType":1},{"alpha3Code":"GAB","alpha2Code":"GA","name":"Gabon","officialName":"Gabonese Republic","latitude":"-0.43426435","longitude":"11.43916591","zoom":7,"id":"5f7853b7c0124571503dec4f","statusType":1},{"alpha3Code":"GMB","alpha2Code":"GM","name":"Gambia","officialName":"Islamic Republic of the Gambia","latitude":"13.15921146","longitude":"-15.35956748","zoom":8,"id":"5f7853b7c0124571503dec50","statusType":1},{"alpha3Code":"GEO","alpha2Code":"GE","name":"Georgia","officialName":"Georgia","latitude":"41.82754301","longitude":"44.17329916","zoom":7,"id":"5f7853b7c0124571503dec51","statusType":1},{"alpha3Code":"DEU","alpha2Code":"DE","name":"Germany","officialName":"Federal Republic of Germany","latitude":"50.82871201","longitude":"10.97887975","zoom":6,"id":"5f7853b7c0124571503dec52","statusType":1},{"alpha3Code":"GHA","alpha2Code":"GH","name":"Ghana","officialName":"Republic of Ghana","latitude":"7.69154199","longitude":"-1.29234904","zoom":7,"id":"5f7853b7c0124571503dec53","statusType":1},{"alpha3Code":"GIB","alpha2Code":"GI","name":"Gibraltar","officialName":"Gibraltar","latitude":"36.14864641","longitude":"-5.34404779","zoom":12,"id":"5f7853b7c0124571503dec54","statusType":1},{"alpha3Code":"GRC","alpha2Code":"GR","name":"Greece","officialName":"Hellenic Republic","latitude":"38.52254746","longitude":"24.53794505","zoom":6,"id":"5f7853b7c0124571503dec55","statusType":1},{"alpha3Code":"GRL","alpha2Code":"GL","name":"Greenland","officialName":"Greenland","latitude":"71.42932629","longitude":"-34.38651956","zoom":3,"id":"5f7853b7c0124571503dec56","statusType":1},{"alpha3Code":"GRD","alpha2Code":"GD","name":"Grenada","officialName":"Grenada","latitude":"12.11644807","longitude":"-61.67899400","zoom":11,"id":"5f7853b7c0124571503dec57","statusType":1},{"alpha3Code":"GLP","alpha2Code":"GP","name":"Guadeloupe","officialName":"Department of Guadeloupe","latitude":"16.26472785","longitude":"-61.55099400","zoom":10,"id":"5f7853b7c0124571503dec58","statusType":1},{"alpha3Code":"GUM","alpha2Code":"GU","name":"Guam","officialName":"Territory of Guam","latitude":"13.44410137","longitude":"144.80747791","zoom":10,"id":"5f7853b7c0124571503dec59","statusType":1},{"alpha3Code":"GTM","alpha2Code":"GT","name":"Guatemala","officialName":"Republic of Guatemala","latitude":"15.72598421","longitude":"-89.96707712","zoom":7,"id":"5f7853b7c0124571503dec5a","statusType":1},{"alpha3Code":"GGY","alpha2Code":"GG","name":"Guernsey","officialName":"Bailiwick of Guernsey","latitude":"49.46565975","longitude":"-2.58527200","zoom":12,"id":"5f7853b7c0124571503dec5b","statusType":1},{"alpha3Code":"GIN","alpha2Code":"GN","name":"Guinea","officialName":"Republic of Guinea","latitude":"9.94301472","longitude":"-11.31711839","zoom":7,"id":"5f7853b7c0124571503dec5c","statusType":1},{"alpha3Code":"GNB","alpha2Code":"GW","name":"Guinea-Bissau","officialName":"Republic of Guinea-Bissau","latitude":"11.80050682","longitude":"-15.18040700","zoom":8,"id":"5f7853b7c0124571503dec5d","statusType":1},{"alpha3Code":"GUY","alpha2Code":"GY","name":"Guyana","officialName":"Republic of Guyana","latitude":"4.47957059","longitude":"-58.72692293","zoom":6,"id":"5f7853b7c0124571503dec5e","statusType":1},{"alpha3Code":"HTI","alpha2Code":"HT","name":"Haiti","officialName":"Republic of Haiti","latitude":"19.07430861","longitude":"-72.79607526","zoom":8,"id":"5f7853b7c0124571503dec5f","statusType":1},{"alpha3Code":"HMD","alpha2Code":"HM","name":"Heard Island And McDonald Islands","officialName":"Heard and McDonald Islands","latitude":"-53.08168847","longitude":"73.50415800","zoom":11,"id":"5f7853b7c0124571503dec60","statusType":1},{"alpha3Code":"VAT","alpha2Code":"VA","name":"Holy See","officialName":"Holy see","latitude":"41.90377810","longitude":"12.45340142","zoom":16,"id":"5f7853b7c0124571503dec61","statusType":1},{"alpha3Code":"HND","alpha2Code":"HN","name":"Honduras","officialName":"Republic of Honduras","latitude":"14.64994423","longitude":"-87.01643713","zoom":7,"id":"5f7853b7c0124571503dec62","statusType":1},{"alpha3Code":"HKG","alpha2Code":"HK","name":"Hong Kong","officialName":"Hong Kong Special Administrative Region of the People's Republic","latitude":"22.33728531","longitude":"114.14657786","zoom":11,"id":"5f7853b7c0124571503dec63","statusType":1},{"alpha3Code":"HUN","alpha2Code":"HU","name":"Hungary","officialName":"Hungary","latitude":"46.97670384","longitude":"19.35499657","zoom":7,"id":"5f7853b7c0124571503dec64","statusType":1},{"alpha3Code":"ISL","alpha2Code":"IS","name":"Iceland","officialName":"Republic of Iceland","latitude":"64.99294495","longitude":"-18.57038755","zoom":6,"id":"5f7853b7c0124571503dec65","statusType":1},{"alpha3Code":"IND","alpha2Code":"IN","name":"India","officialName":"Republic of India","latitude":"20.46549519","longitude":"78.50146222","zoom":4,"id":"5f7853b7c0124571503dec66","statusType":1},{"alpha3Code":"IDN","alpha2Code":"ID","name":"Indonesia","officialName":"Republic of Indonesia","latitude":"-2.46229680","longitude":"121.18329789","zoom":4,"id":"5f7853b7c0124571503dec67","statusType":1},{"alpha3Code":"IRN","alpha2Code":"IR","name":"Iran (Islamic Republic of)","officialName":"Islamic Republic of Iran","latitude":"31.40240324","longitude":"51.28204814","zoom":5,"id":"5f7853b7c0124571503dec68","statusType":1},{"alpha3Code":"IRQ","alpha2Code":"IQ","name":"Iraq","officialName":"Republic of Iraq","latitude":"32.90170182","longitude":"43.19590056","zoom":6,"id":"5f7853b7c0124571503dec69","statusType":1},{"alpha3Code":"IRL","alpha2Code":"IE","name":"Ireland","officialName":"Ireland","latitude":"53.10101628","longitude":"-8.21092302","zoom":6,"id":"5f7853b7c0124571503dec6a","statusType":1},{"alpha3Code":"IMN","alpha2Code":"IM","name":"Isle of Man","officialName":"The Isle of Man","latitude":"54.23562697","longitude":"-4.54805400","zoom":10,"id":"5f7853b7c0124571503dec6b","statusType":1},{"alpha3Code":"ISR","alpha2Code":"IL","name":"Israel","officialName":"State of Israel","latitude":"30.85883075","longitude":"34.91753797","zoom":7,"id":"5f7853b7c0124571503dec6c","statusType":1},{"alpha3Code":"ITA","alpha2Code":"IT","name":"Italy","officialName":"Republic of Italy","latitude":"41.77810840","longitude":"12.67725128","zoom":5,"id":"5f7853b7c0124571503dec6d","statusType":1},{"alpha3Code":"JAM","alpha2Code":"JM","name":"Jamaica","officialName":"Jamaica","latitude":"18.10838487","longitude":"-77.29750600","zoom":9,"id":"5f7853b7c0124571503dec6e","statusType":1},{"alpha3Code":"JPN","alpha2Code":"JP","name":"Japan","officialName":"Japan","latitude":"37.51848822","longitude":"137.67066061","zoom":5,"id":"5f7853b7c0124571503dec6f","statusType":1},{"alpha3Code":"JEY","alpha2Code":"JE","name":"Jersey","officialName":"Bailiwick of Jersey","latitude":"49.21440771","longitude":"-2.13124600","zoom":12,"id":"5f7853b7c0124571503dec70","statusType":1},{"alpha3Code":"JOR","alpha2Code":"JO","name":"Jordan","officialName":"Hashemite Kingdom of Jordan","latitude":"31.31616588","longitude":"36.37575510","zoom":7,"id":"5f7853b7c0124571503dec71","statusType":1},{"alpha3Code":"KAZ","alpha2Code":"KZ","name":"Kazakhstan","officialName":"Republic of Kazakhstan","latitude":"45.38592596","longitude":"68.81334444","zoom":4,"id":"5f7853b7c0124571503dec72","statusType":1},{"alpha3Code":"KEN","alpha2Code":"KE","name":"Kenya","officialName":"Republic of Kenya","latitude":"0.19582452","longitude":"37.97212297","zoom":6,"id":"5f7853b7c0124571503dec73","statusType":1},{"alpha3Code":"KIR","alpha2Code":"KI","name":"Kiribati","officialName":"Republic of Kiribati","latitude":"1.87085244","longitude":"-157.36259310","zoom":10,"id":"5f7853b7c0124571503dec74","statusType":1},{"alpha3Code":"KWT","alpha2Code":"KW","name":"Kuwait","officialName":"State of Kuwait","latitude":"29.43253341","longitude":"47.71798405","zoom":8,"id":"5f7853b7c0124571503dec75","statusType":1},{"alpha3Code":"KGZ","alpha2Code":"KG","name":"Kyrgyzstan","officialName":"Kyrgyz Republic","latitude":"41.11509878","longitude":"74.25524574","zoom":6,"id":"5f7853b7c0124571503dec76","statusType":1},{"alpha3Code":"LAO","alpha2Code":"LA","name":"Lao People's Democratic Republic","officialName":"Lao People's Democratic Republic","latitude":"17.76075593","longitude":"103.61611347","zoom":6,"id":"5f7853b7c0124571503dec77","statusType":1},{"alpha3Code":"LVA","alpha2Code":"LV","name":"Latvia","officialName":"Republic of Latvia","latitude":"56.86697515","longitude":"24.54826936","zoom":7,"id":"5f7853b7c0124571503dec78","statusType":1},{"alpha3Code":"LBN","alpha2Code":"LB","name":"Lebanon","officialName":"Lebanese Republic","latitude":"34.08249284","longitude":"35.66454309","zoom":8,"id":"5f7853b7c0124571503dec79","statusType":1},{"alpha3Code":"LSO","alpha2Code":"LS","name":"Lesotho","officialName":"Kingdom of Lesotho","latitude":"-29.60303205","longitude":"28.23361200","zoom":8,"id":"5f7853b7c0124571503dec7a","statusType":1},{"alpha3Code":"LBR","alpha2Code":"LR","name":"Liberia","officialName":"Republic of Liberia","latitude":"6.44154681","longitude":"-9.39103485","zoom":7,"id":"5f7853b7c0124571503dec7b","statusType":1},{"alpha3Code":"LBY","alpha2Code":"LY","name":"Libya","officialName":"Libya","latitude":"27.06902914","longitude":"18.19513987","zoom":5,"id":"5f7853b7c0124571503dec7c","statusType":1},{"alpha3Code":"LIE","alpha2Code":"LI","name":"Liechtenstein","officialName":"Principality of Liechtenstein","latitude":"47.16587383","longitude":"9.55537700","zoom":11,"id":"5f7853b7c0124571503dec7d","statusType":1},{"alpha3Code":"LTU","alpha2Code":"LT","name":"Lithuania","officialName":"Republic of Lithuania","latitude":"55.25095948","longitude":"23.80987587","zoom":7,"id":"5f7853b7c0124571503dec7e","statusType":1},{"alpha3Code":"LUX","alpha2Code":"LU","name":"Luxembourg","officialName":"Grand Duchy of Luxembourg","latitude":"49.81327712","longitude":"6.12958700","zoom":9,"id":"5f7853b7c0124571503dec7f","statusType":1},{"alpha3Code":"MAC","alpha2Code":"MO","name":"Macao","officialName":"Macau Special Administrative Region","latitude":"22.19872287","longitude":"113.54387700","zoom":12,"id":"5f7853b7c0124571503dec80","statusType":1},{"alpha3Code":"MDG","alpha2Code":"MG","name":"Madagascar","officialName":"Republic of Madagascar","latitude":"-19.79858543","longitude":"46.97898228","zoom":5,"id":"5f7853b7c0124571503dec81","statusType":1},{"alpha3Code":"MWI","alpha2Code":"MW","name":"Malawi","officialName":"Republic of Malawi","latitude":"-12.48684092","longitude":"34.14223524","zoom":6,"id":"5f7853b7c0124571503dec82","statusType":1},{"alpha3Code":"MYS","alpha2Code":"MY","name":"Malaysia","officialName":"Malaysia","latitude":"4.97345793","longitude":"106.54609050","zoom":5,"id":"5f7853b7c0124571503dec83","statusType":1},{"alpha3Code":"MDV","alpha2Code":"MV","name":"Maldives","officialName":"Republic of Maldives","latitude":"-0.64224221","longitude":"73.13373313","zoom":12,"id":"5f7853b7c0124571503dec84","statusType":1},{"alpha3Code":"MLI","alpha2Code":"ML","name":"Mali","officialName":"Republic of Mali","latitude":"17.69385811","longitude":"-1.96368730","zoom":5,"id":"5f7853b7c0124571503dec85","statusType":1},{"alpha3Code":"MLT","alpha2Code":"MT","name":"Malta","officialName":"Republic of Malta","latitude":"35.89706403","longitude":"14.43687877","zoom":11,"id":"5f7853b7c0124571503dec86","statusType":1},{"alpha3Code":"MHL","alpha2Code":"MH","name":"Marshall Islands","officialName":"Republic of the Marshall Islands","latitude":"7.30130732","longitude":"168.75512619","zoom":10,"id":"5f7853b7c0124571503dec87","statusType":1},{"alpha3Code":"MTQ","alpha2Code":"MQ","name":"Martinique","officialName":"Department of Martinique","latitude":"14.64128045","longitude":"-61.02417600","zoom":10,"id":"5f7853b7c0124571503dec88","statusType":1},{"alpha3Code":"MRT","alpha2Code":"MR","name":"Mauritania","officialName":"Islamic Republic of Mauritania","latitude":"20.28331239","longitude":"-10.21573334","zoom":5,"id":"5f7853b7c0124571503dec89","statusType":1},{"alpha3Code":"MUS","alpha2Code":"MU","name":"Mauritius","officialName":"Republic of Mauritius","latitude":"-20.28368188","longitude":"57.56588291","zoom":10,"id":"5f7853b7c0124571503dec8a","statusType":1},{"alpha3Code":"MYT","alpha2Code":"YT","name":"Mayotte","officialName":"Overseas Department of Mayotte","latitude":"-12.82744522","longitude":"45.16624200","zoom":11,"id":"5f7853b8c0124571503dec8b","statusType":1},{"alpha3Code":"MEX","alpha2Code":"MX","name":"Mexico","officialName":"United Mexican States","latitude":"22.92036676","longitude":"-102.33305344","zoom":5,"id":"5f7853b8c0124571503dec8c","statusType":1},{"alpha3Code":"FSM","alpha2Code":"FM","name":"Micronesia","officialName":"Federated States of Micronesia","latitude":"6.88747377","longitude":"158.21507170","zoom":12,"id":"5f7853b8c0124571503dec8d","statusType":1},{"alpha3Code":"MCO","alpha2Code":"MC","name":"Monaco","officialName":"Principality of Monaco","latitude":"43.70463620","longitude":"6.75444978","zoom":9,"id":"5f7853b8c0124571503dec8e","statusType":1},{"alpha3Code":"MNG","alpha2Code":"MN","name":"Mongolia","officialName":"Mongolia","latitude":"46.80556270","longitude":"104.30808978","zoom":5,"id":"5f7853b8c0124571503dec8f","statusType":1},{"alpha3Code":"MNE","alpha2Code":"ME","name":"Montenegro","officialName":"Montenegro","latitude":"42.71699590","longitude":"19.09699321","zoom":8,"id":"5f7853b8c0124571503dec90","statusType":1},{"alpha3Code":"MSR","alpha2Code":"MS","name":"Montserrat","officialName":"Montserrat","latitude":"16.74774077","longitude":"-62.18736600","zoom":12,"id":"5f7853b8c0124571503dec91","statusType":1},{"alpha3Code":"MAR","alpha2Code":"MA","name":"Morocco","officialName":"Kingdom of Morocco","latitude":"31.95441758","longitude":"-7.26839325","zoom":6,"id":"5f7853b8c0124571503dec92","statusType":1},{"alpha3Code":"MOZ","alpha2Code":"MZ","name":"Mozambique","officialName":"Republic of Mozambique","latitude":"-19.07617816","longitude":"33.81570282","zoom":5,"id":"5f7853b8c0124571503dec93","statusType":1},{"alpha3Code":"MMR","alpha2Code":"MM","name":"Myanmar","officialName":"Republic of Union of Myanmar","latitude":"19.20985380","longitude":"96.54949272","zoom":5,"id":"5f7853b8c0124571503dec94","statusType":1},{"alpha3Code":"NAM","alpha2Code":"NA","name":"Namibia","officialName":"Republic of Namibia","latitude":"-22.70965620","longitude":"16.72161918","zoom":6,"id":"5f7853b8c0124571503dec95","statusType":1},{"alpha3Code":"NRU","alpha2Code":"NR","name":"Nauru","officialName":"Republic of Nauru","latitude":"-0.52586763","longitude":"166.93270463","zoom":13,"id":"5f7853b8c0124571503dec96","statusType":1},{"alpha3Code":"NPL","alpha2Code":"NP","name":"Nepal","officialName":"Federal Democratic Republic of Nepal","latitude":"28.28430770","longitude":"83.98119373","zoom":7,"id":"5f7853b8c0124571503dec97","statusType":1},{"alpha3Code":"NLD","alpha2Code":"NL","name":"Netherlands","officialName":"Kingdom of Netherlands","latitude":"52.33939951","longitude":"4.98914998","zoom":7,"id":"5f7853b8c0124571503dec98","statusType":1},{"alpha3Code":"NCL","alpha2Code":"NC","name":"New Caledonia","officialName":"Territory of New Caledonia and Dependencies","latitude":"-21.26104020","longitude":"165.58783760","zoom":8,"id":"5f7853b8c0124571503dec99","statusType":1},{"alpha3Code":"NZL","alpha2Code":"NZ","name":"New Zealand","officialName":"New Zealand","latitude":"-40.95025298","longitude":"171.76586181","zoom":5,"id":"5f7853b8c0124571503dec9a","statusType":1},{"alpha3Code":"NIC","alpha2Code":"NI","name":"Nicaragua","officialName":"Republic of Nicaragua","latitude":"12.91806226","longitude":"-84.82270352","zoom":7,"id":"5f7853b8c0124571503dec9b","statusType":1},{"alpha3Code":"NER","alpha2Code":"NE","name":"Niger","officialName":"Republic of Niger","latitude":"17.23446679","longitude":"8.23547860","zoom":6,"id":"5f7853b8c0124571503dec9c","statusType":1},{"alpha3Code":"NGA","alpha2Code":"NG","name":"Nigeria","officialName":"Federal Republic of Nigeria","latitude":"9.02165273","longitude":"7.82933373","zoom":6,"id":"5f7853b8c0124571503dec9d","statusType":1},{"alpha3Code":"NIU","alpha2Code":"NU","name":"Niue","officialName":"Niue","latitude":"-19.04976362","longitude":"-169.86585571","zoom":11,"id":"5f7853b8c0124571503dec9e","statusType":1},{"alpha3Code":"NFK","alpha2Code":"NF","name":"Norfolk Island","officialName":"Norfolk Islands","latitude":"-29.02801043","longitude":"167.94303023","zoom":13,"id":"5f7853b8c0124571503dec9f","statusType":1},{"alpha3Code":"MNP","alpha2Code":"MP","name":"Northern Mariana Islands","officialName":"Commonwealth of the Northern Mariana Islands","latitude":"15.09783636","longitude":"145.67390000","zoom":11,"id":"5f7853b8c0124571503deca0","statusType":1},{"alpha3Code":"NOR","alpha2Code":"NO","name":"Norway","officialName":"Kingdom of Norway","latitude":"65.04680297","longitude":"13.50069228","zoom":4,"id":"5f7853b8c0124571503deca1","statusType":1},{"alpha3Code":"OMN","alpha2Code":"OM","name":"Oman","officialName":"Sultanate of Oman","latitude":"20.69906846","longitude":"56.69230596","zoom":6,"id":"5f7853b8c0124571503deca2","statusType":1},{"alpha3Code":"PAK","alpha2Code":"PK","name":"Pakistan","officialName":"Islamic Republic of Pakistan","latitude":"29.90335974","longitude":"70.34487986","zoom":5,"id":"5f7853b8c0124571503deca3","statusType":1},{"alpha3Code":"PLW","alpha2Code":"PW","name":"Palau","officialName":"Republic of Palau","latitude":"7.49856307","longitude":"134.57291496","zoom":10,"id":"5f7853b8c0124571503deca4","statusType":1},{"alpha3Code":"PSE","alpha2Code":"PS","name":"Palestinian Territory, Occupied","officialName":"Occupied Palestinian Territory","latitude":"32.26367103","longitude":"35.21936714","zoom":8,"id":"5f7853b8c0124571503deca5","statusType":1},{"alpha3Code":"PAN","alpha2Code":"PA","name":"Panama","officialName":"Republic of Panama","latitude":"8.52135102","longitude":"-80.04603702","zoom":7,"id":"5f7853b8c0124571503deca6","statusType":1},{"alpha3Code":"PNG","alpha2Code":"PG","name":"Papua New Guinea","officialName":"Independent State of Papua New Guinea","latitude":"-6.62414046","longitude":"144.44993477","zoom":7,"id":"5f7853b8c0124571503deca7","statusType":1},{"alpha3Code":"PRY","alpha2Code":"PY","name":"Paraguay","officialName":"Republic of Paraguay","latitude":"-23.38564782","longitude":"-58.29551057","zoom":6,"id":"5f7853b8c0124571503deca8","statusType":1},{"alpha3Code":"PER","alpha2Code":"PE","name":"Peru","officialName":"Republic of Peru","latitude":"-8.50205247","longitude":"-76.15772412","zoom":5,"id":"5f7853b8c0124571503deca9","statusType":1},{"alpha3Code":"PHL","alpha2Code":"PH","name":"Philippines","officialName":"Republic of Philippines","latitude":"12.82361200","longitude":"121.77401700","zoom":6,"id":"5f7853b8c0124571503decaa","statusType":1},{"alpha3Code":"PCN","alpha2Code":"PN","name":"Pitcairn Islands","officialName":"Pitcairn Group of Islands","latitude":"-24.37673925","longitude":"-128.32423730","zoom":13,"id":"5f7853b8c0124571503decab","statusType":1},{"alpha3Code":"POL","alpha2Code":"PL","name":"Poland","officialName":"Republic of Poland","latitude":"52.10117636","longitude":"19.33190957","zoom":6,"id":"5f7853b8c0124571503decac","statusType":1},{"alpha3Code":"PRT","alpha2Code":"PT","name":"Portugal","officialName":"Portuguese Republic","latitude":"39.44879136","longitude":"-8.03768042","zoom":6,"id":"5f7853b8c0124571503decad","statusType":1},{"alpha3Code":"PRI","alpha2Code":"PR","name":"Puerto Rico","officialName":"Commonwealth of Puerto Rico","latitude":"18.21963053","longitude":"-66.59015100","zoom":9,"id":"5f7853b8c0124571503decae","statusType":1},{"alpha3Code":"QAT","alpha2Code":"QA","name":"Qatar","officialName":"State of Qatar","latitude":"25.24551555","longitude":"51.24431480","zoom":8,"id":"5f7853b8c0124571503decaf","statusType":1},{"alpha3Code":"KOR","alpha2Code":"KR","name":"Republic of Korea","officialName":"Republic of Korea","latitude":"36.56344139","longitude":"127.51424646","zoom":7,"id":"5f7853b8c0124571503decb0","statusType":1},{"alpha3Code":"MDA","alpha2Code":"MD","name":"Republic of Moldova","officialName":"Republic of Moldova","latitude":"47.10710437","longitude":"28.54018109","zoom":7,"id":"5f7853b8c0124571503decb1","statusType":1},{"alpha3Code":"REU","alpha2Code":"RE","name":"Réunion","officialName":"Department of Reunion","latitude":"-21.11480084","longitude":"55.53638200","zoom":10,"id":"5f7853b8c0124571503decb2","statusType":1},{"alpha3Code":"ROU","alpha2Code":"RO","name":"Romania","officialName":"Romania","latitude":"45.56450023","longitude":"25.21945155","zoom":6,"id":"5f7853b8c0124571503decb3","statusType":1},{"alpha3Code":"RUS","alpha2Code":"RU","name":"Russian Federation","officialName":"Russian Federation","latitude":"57.96812298","longitude":"102.41837137","zoom":3,"id":"5f7853b8c0124571503decb4","statusType":1},{"alpha3Code":"RWA","alpha2Code":"RW","name":"Rwanda","officialName":"Republic of Rwanda","latitude":"-1.98589079","longitude":"29.94255855","zoom":8,"id":"5f7853b8c0124571503decb5","statusType":1},{"alpha3Code":"BLM","alpha2Code":"BL","name":"Saint Barthélemy","officialName":"Territorial collectivity of Saint Barthélemy","latitude":"17.90042417","longitude":"-62.83376215","zoom":13,"id":"5f7853b8c0124571503decb6","statusType":1},{"alpha3Code":"SHN","alpha2Code":"SH","name":"Saint Helena, Ascension and Tristan da Cunha","officialName":"Saint Helena, Ascension and Tristan da Cunha","latitude":"-37.10521846","longitude":"-12.27768580","zoom":12,"id":"5f7853b8c0124571503decb7","statusType":1},{"alpha3Code":"KNA","alpha2Code":"KN","name":"Saint Kitts and Nevis","officialName":"Saint Kitts and Nevis","latitude":"17.33453669","longitude":"-62.76411725","zoom":12,"id":"5f7853b8c0124571503decb8","statusType":1},{"alpha3Code":"LCA","alpha2Code":"LC","name":"Saint Lucia","officialName":"Saint Lucia","latitude":"13.90938495","longitude":"-60.97889500","zoom":11,"id":"5f7853b8c0124571503decb9","statusType":1},{"alpha3Code":"MAF","alpha2Code":"MF","name":"Saint Martin","officialName":"Saint Martin","latitude":"18.07637107","longitude":"-63.05019106","zoom":12,"id":"5f7853b8c0124571503decba","statusType":1},{"alpha3Code":"SPM","alpha2Code":"PM","name":"Saint Pierre and Miquelon","officialName":"Saint Pierre and Miquelon","latitude":"46.88469499","longitude":"-56.31590200","zoom":10,"id":"5f7853b8c0124571503decbb","statusType":1},{"alpha3Code":"VCT","alpha2Code":"VC","name":"Saint Vincent and the Grenadines","officialName":"Saint Vincent and the Grenadines","latitude":"13.25276143","longitude":"-61.19709800","zoom":11,"id":"5f7853b8c0124571503decbc","statusType":1},{"alpha3Code":"WSM","alpha2Code":"WS","name":"Samoa","officialName":"Independent State of Samoa","latitude":"-13.57998954","longitude":"-172.45207363","zoom":10,"id":"5f7853b8c0124571503decbd","statusType":1},{"alpha3Code":"SMR","alpha2Code":"SM","name":"San Marino","officialName":"Republic of San Marino","latitude":"43.94223356","longitude":"12.45777700","zoom":11,"id":"5f7853b8c0124571503decbe","statusType":1},{"alpha3Code":"STP","alpha2Code":"ST","name":"Sao Tome and Principe","officialName":"Democratic Republic of Sao Tome and Principe","latitude":"0.23381910","longitude":"6.59935809","zoom":10,"id":"5f7853b8c0124571503decbf","statusType":1},{"alpha3Code":"SAU","alpha2Code":"SA","name":"Saudi Arabia","officialName":"Kingdom of Saudi Arabia","latitude":"24.16687314","longitude":"42.88190638","zoom":5,"id":"5f7853b8c0124571503decc0","statusType":1},{"alpha3Code":"SEN","alpha2Code":"SN","name":"Senegal","officialName":"Republic of Senegal","latitude":"14.43579003","longitude":"-14.68306489","zoom":7,"id":"5f7853b8c0124571503decc1","statusType":1},{"alpha3Code":"SRB","alpha2Code":"RS","name":"Serbia","officialName":"Republic of Serbia","latitude":"44.06736041","longitude":"20.29725084","zoom":7,"id":"5f7853b8c0124571503decc2","statusType":1},{"alpha3Code":"SYC","alpha2Code":"SC","name":"Seychelles","officialName":"Republic of Seychelles","latitude":"-4.68053204","longitude":"55.49061371","zoom":11,"id":"5f7853b8c0124571503decc3","statusType":1},{"alpha3Code":"SLE","alpha2Code":"SL","name":"Sierra Leone","officialName":"Republic of Sierra Leone","latitude":"8.45575589","longitude":"-11.93368759","zoom":8,"id":"5f7853b8c0124571503decc4","statusType":1},{"alpha3Code":"SGP","alpha2Code":"SG","name":"Singapore","officialName":"Republic of Singapore","latitude":"1.33873261","longitude":"103.83323559","zoom":11,"id":"5f7853b8c0124571503decc5","statusType":1},{"alpha3Code":"SXM","alpha2Code":"SX","name":"Sint Maarten","officialName":"Sint Maarten","latitude":"18.04433885","longitude":"-63.05616320","zoom":12,"id":"5f7853b8c0124571503decc6","statusType":1},{"alpha3Code":"SVK","alpha2Code":"SK","name":"Slovakia","officialName":"Slovak Republic","latitude":"48.66923253","longitude":"19.75396564","zoom":7,"id":"5f7853b8c0124571503decc7","statusType":1},{"alpha3Code":"SVN","alpha2Code":"SI","name":"Slovenia","officialName":"Republic of Slovenia","latitude":"46.14315048","longitude":"14.99546300","zoom":8,"id":"5f7853b8c0124571503decc8","statusType":1},{"alpha3Code":"SLB","alpha2Code":"SB","name":"Solomon Islands","officialName":"Solomon Islands","latitude":"-9.64554280","longitude":"160.15619400","zoom":10,"id":"5f7853b8c0124571503decc9","statusType":1},{"alpha3Code":"SOM","alpha2Code":"SO","name":"Somalia","officialName":"Federal Republic of Somalia","latitude":"2.87224619","longitude":"45.27676444","zoom":7,"id":"5f7853b8c0124571503decca","statusType":1},{"alpha3Code":"ZAF","alpha2Code":"ZA","name":"South Africa","officialName":"Republic of South Africa","latitude":"-27.17706863","longitude":"24.50856092","zoom":5,"id":"5f7853b8c0124571503deccb","statusType":1},{"alpha3Code":"SGS","alpha2Code":"GS","name":"South Georgia and the South Sandwich Islands","officialName":"South Georgia and the South Sandwich Islands","latitude":"-54.38130284","longitude":"-36.67305304","zoom":9,"id":"5f7853b8c0124571503deccc","statusType":1},{"alpha3Code":"SSD","alpha2Code":"SS","name":"South Sudan","officialName":"Republic of South Sudan","latitude":"7.91320803","longitude":"30.15342434","zoom":6,"id":"5f7853b8c0124571503deccd","statusType":1},{"alpha3Code":"ESP","alpha2Code":"ES","name":"Spain","officialName":"Kingdom of Spain","latitude":"39.87299401","longitude":"-3.67089492","zoom":6,"id":"5f7853b8c0124571503decce","statusType":1},{"alpha3Code":"LKA","alpha2Code":"LK","name":"Sri Lanka","officialName":"Democratic Socialist Republic of Sri Lanka","latitude":"7.61264985","longitude":"80.83772497","zoom":7,"id":"5f7853b8c0124571503deccf","statusType":1},{"alpha3Code":"SDN","alpha2Code":"SD","name":"Sudan","officialName":"Republic of Sudan","latitude":"15.96646839","longitude":"30.37145459","zoom":5,"id":"5f7853b8c0124571503decd0","statusType":1},{"alpha3Code":"SUR","alpha2Code":"SR","name":"SuriName","officialName":"Republic of SuriName","latitude":"4.26470865","longitude":"-55.93988238","zoom":7,"id":"5f7853b8c0124571503decd1","statusType":1},{"alpha3Code":"SJM","alpha2Code":"SJ","name":"Svalbard and Jan Mayen","officialName":"Svalbard and Jan Mayen","latitude":"77.92215764","longitude":"18.99010622","zoom":4,"id":"5f7853b8c0124571503decd2","statusType":1},{"alpha3Code":"SWZ","alpha2Code":"SZ","name":"Swaziland","officialName":"Kingdom of Swaziland","latitude":"-26.53892570","longitude":"31.47960891","zoom":9,"id":"5f7853b8c0124571503decd3","statusType":1},{"alpha3Code":"SWE","alpha2Code":"SE","name":"Sweden","officialName":"Kingdom of Sweden","latitude":"61.42370427","longitude":"16.73188991","zoom":4,"id":"5f7853b8c0124571503decd4","statusType":1},{"alpha3Code":"CHE","alpha2Code":"CH","name":"Switzerland","officialName":"Swiss Confederation","latitude":"46.81010721","longitude":"8.22751200","zoom":8,"id":"5f7853b8c0124571503decd5","statusType":1},{"alpha3Code":"SYR","alpha2Code":"SY","name":"Syrian Arab Republic","officialName":"Syrian Arab Republic","latitude":"34.71097430","longitude":"38.66723516","zoom":6,"id":"5f7853b8c0124571503decd6","statusType":1},{"alpha3Code":"TWN","alpha2Code":"TW","name":"Taiwan","officialName":"Republic of China","latitude":"23.71891402","longitude":"121.10884043","zoom":7,"id":"5f7853b8c0124571503decd7","statusType":1},{"alpha3Code":"TJK","alpha2Code":"TJ","name":"Tajikistan","officialName":"Republic of Tajikistan","latitude":"38.68075124","longitude":"71.23215769","zoom":7,"id":"5f7853b8c0124571503decd8","statusType":1},{"alpha3Code":"THA","alpha2Code":"TH","name":"Thailand","officialName":"Kingdom of Thailand","latitude":"14.60009810","longitude":"101.38805881","zoom":5,"id":"5f7853b8c0124571503decd9","statusType":1},{"alpha3Code":"MKD","alpha2Code":"MK","name":"The former Yugoslav Republic of Macedonia","officialName":"The former Yugoslav Republic of Macedonia","latitude":"41.60059479","longitude":"21.74527900","zoom":8,"id":"5f7853b8c0124571503decda","statusType":1},{"alpha3Code":"TLS","alpha2Code":"TL","name":"Timor-Leste","officialName":"Democratic Republic of Timor-Leste","latitude":"-8.88926365","longitude":"125.99671404","zoom":9,"id":"5f7853b8c0124571503decdb","statusType":1},{"alpha3Code":"TGO","alpha2Code":"TG","name":"Togo","officialName":"Togolese Republic","latitude":"8.68089206","longitude":"0.86049757","zoom":7,"id":"5f7853b8c0124571503decdc","statusType":1},{"alpha3Code":"TKL","alpha2Code":"TK","name":"Tokelau (Associate Member)","officialName":"Tokelau","latitude":"-9.16682644","longitude":"-171.83981693","zoom":10,"id":"5f7853b8c0124571503decdd","statusType":1},{"alpha3Code":"TON","alpha2Code":"TO","name":"Tonga","officialName":"Kingdom of Tonga","latitude":"-21.17890075","longitude":"-175.19824200","zoom":11,"id":"5f7853b8c0124571503decde","statusType":1},{"alpha3Code":"TTO","alpha2Code":"TT","name":"Trinidad and Tobago","officialName":"Republic of Trinidad and Tobago","latitude":"10.43241863","longitude":"-61.22250300","zoom":10,"id":"5f7853b8c0124571503decdf","statusType":1},{"alpha3Code":"TUN","alpha2Code":"TN","name":"Tunisia","officialName":"Republic of Tunisia","latitude":"33.88431940","longitude":"9.71878341","zoom":6,"id":"5f7853b8c0124571503dece0","statusType":1},{"alpha3Code":"TUR","alpha2Code":"TR","name":"Turkey","officialName":"Republic of Turkey","latitude":"38.27069555","longitude":"36.28703317","zoom":5,"id":"5f7853b8c0124571503dece1","statusType":1},{"alpha3Code":"TKM","alpha2Code":"TM","name":"Turkmenistan","officialName":"Turkmenistan","latitude":"38.94915421","longitude":"59.06190323","zoom":6,"id":"5f7853b8c0124571503dece2","statusType":1},{"alpha3Code":"TCA","alpha2Code":"TC","name":"Turks and Caicos Islands","officialName":"Turks and Caicos Islands","latitude":"21.72816866","longitude":"-71.79654471","zoom":9,"id":"5f7853b8c0124571503dece3","statusType":1},{"alpha3Code":"TUV","alpha2Code":"TV","name":"Tuvalu","officialName":"Tuvalu","latitude":"-8.45968122","longitude":"179.13310944","zoom":12,"id":"5f7853b8c0124571503dece4","statusType":1},{"alpha3Code":"UGA","alpha2Code":"UG","name":"Uganda","officialName":"Republic of Uganda","latitude":"1.54760620","longitude":"32.44409759","zoom":7,"id":"5f7853b8c0124571503dece5","statusType":1},{"alpha3Code":"UKR","alpha2Code":"UA","name":"Ukraine","officialName":"Ukraine","latitude":"48.89358596","longitude":"31.10516920","zoom":6,"id":"5f7853b8c0124571503dece6","statusType":1},{"alpha3Code":"ARE","alpha2Code":"AE","name":"United Arab Emirates","officialName":"United Arab Emirates","latitude":"24.64324405","longitude":"53.62261227","zoom":7,"id":"5f7853b8c0124571503dece7","statusType":1},{"alpha3Code":"GBR","alpha2Code":"GB","name":"United Kingdom","officialName":"United Kingdom of Great Britain and Northern Ireland","latitude":"53.36540813","longitude":"-2.72184767","zoom":6,"id":"5f7853b8c0124571503dece8","statusType":1},{"alpha3Code":"TZA","alpha2Code":"TZ","name":"United Republic of Tanzania","officialName":"United Republic of Tanzania","latitude":"-6.37551085","longitude":"34.85587302","zoom":6,"id":"5f7853b8c0124571503dece9","statusType":1},{"alpha3Code":"UMI","alpha2Code":"UM","name":"United States Minor Outlying Islands","officialName":"United States Minor Outlying Islands","latitude":"19.46305694","longitude":"177.98631092","zoom":5,"id":"5f7853b8c0124571503decea","statusType":1},{"alpha3Code":"USA","alpha2Code":"US","name":"United States of America","officialName":"United States of America","latitude":"37.66895362","longitude":"-102.39256450","zoom":4,"id":"5f7853b8c0124571503deceb","statusType":1},{"alpha3Code":"VIR","alpha2Code":"VI","name":"United States Virgin Islands","officialName":"Virgin Islands of the United States","latitude":"18.01000938","longitude":"-64.77411410","zoom":9,"id":"5f7853b8c0124571503decec","statusType":1},{"alpha3Code":"URY","alpha2Code":"UY","name":"Uruguay","officialName":"Eastern Republic of Uruguay","latitude":"-32.49342987","longitude":"-55.76583300","zoom":7,"id":"5f7853b8c0124571503deced","statusType":1},{"alpha3Code":"UZB","alpha2Code":"UZ","name":"Uzbekistan","officialName":"Republic of Uzbekistan","latitude":"41.30829147","longitude":"62.62970960","zoom":6,"id":"5f7853b8c0124571503decee","statusType":1},{"alpha3Code":"VUT","alpha2Code":"VU","name":"Vanuatu","officialName":"Republic of Vanuatu","latitude":"-15.37256614","longitude":"166.95916000","zoom":8,"id":"5f7853b8c0124571503decef","statusType":1},{"alpha3Code":"VEN","alpha2Code":"VE","name":"Venezuela","officialName":"Bolivarian Republic of Venezuela","latitude":"5.98477766","longitude":"-65.94152264","zoom":6,"id":"5f7853b8c0124571503decf0","statusType":1},{"alpha3Code":"VNM","alpha2Code":"VN","name":"Vietnam","officialName":"Socialist Republic of Vietnam","latitude":"17.19931699","longitude":"107.14012804","zoom":5,"id":"5f7853b8c0124571503decf1","statusType":1},{"alpha3Code":"VGB","alpha2Code":"VG","name":"Virgin Islands","officialName":"British Virgin Islands","latitude":"17.67004187","longitude":"-64.77411010","zoom":10,"id":"5f7853b8c0124571503decf2","statusType":1},{"alpha3Code":"WLF","alpha2Code":"WF","name":"Wallis and Futuna","officialName":"Territory of the Wallis and Futuna Islands","latitude":"-14.29378486","longitude":"-178.11649800","zoom":12,"id":"5f7853b8c0124571503decf3","statusType":1},{"alpha3Code":"ESH","alpha2Code":"EH","name":"Western Sahara","officialName":"Western Sahara","latitude":"24.79324356","longitude":"-13.67683563","zoom":6,"id":"5f7853b8c0124571503decf4","statusType":1},{"alpha3Code":"YEM","alpha2Code":"YE","name":"Yemen","officialName":"Republic of Yemen","latitude":"15.60865453","longitude":"47.60453676","zoom":6,"id":"5f7853b8c0124571503decf5","statusType":1},{"alpha3Code":"ZMB","alpha2Code":"ZM","name":"Zambia","officialName":"Republic of Zambia","latitude":"-13.01812188","longitude":"28.33274444","zoom":6,"id":"5f7853b8c0124571503decf6","statusType":1},{"alpha3Code":"ZWE","alpha2Code":"ZW","name":"Zimbabwe","officialName":"Republic of Zimbabwe","latitude":"-19.00784952","longitude":"30.18758584","zoom":6,"id":"5f7853b8c0124571503decf7","statusType":1}]